Date,Time,Latitude,Longitude,Location_Name,Match_Profile,Duration_Minutes,Outcome
2024-03-04,19:00,52.5100,13.4200,Bar Madame Claude,Alexander_28,45,Meet
2024-03-04,20:00,52.5150,13.4250,Restaurant Gendarmenmarkt,Alexander_28,120,Dinner
2024-03-05,21:00,52.5200,13.4300,Hotel Berlin Mitte,Alexander_28,90,Hotel Visit
2024-03-08,19:30,52.4950,13.3900,Cafe Prater Garten,Julia_25,30,Meet
2024-03-08,20:00,52.5050,13.4050,Walk Tiergarten,Julia_25,60,Walk
2024-03-10,22:00,52.5200,13.4050,Home Address,Unknown_Visitor,120,Unknown
